stop_id,stop_code,stop_name,stop_desc,stop_lat,stop_lon,location_type,parent_station,wheelchair_boarding
40010,,Austin (Blue),,41.870851,-87.776812,1,,0
40020,,Harlem/Lake,,41.886848,-87.803176,1,,1
40030,,Pulaski (Green),,41.885412,-87.725404,1,,1
40040,,Quincy,,41.878723,-87.63374,1,,1
40050,,Davis,,42.04771,-87.683543,1,,1
40060,,Belmont (Blue),,41.9391107041,-87.71225212,1,,0
40070,,Jackson (Blue),,41.878183,-87.629296,1,,1
40080,,Sheridan,,41.9539048386,-87.6546614127,1,,0
40090,,Damen (Brown),,41.966286,-87.678639,1,,1
40100,,Morse,,42.008362,-87.665909,1,,0
40120,,35th/Archer,,41.829353,-87.680622,1,,1
40130,,51st,,41.80209,-87.618487,1,,1
40140,,Dempster-Skokie,,42.038951,-87.751919,1,,1
40150,,Pulaski (Pink),,41.853732,-87.724311,1,,1
40160,,LaSalle/Van Buren,,41.8768,-87.631739,1,,0
40170,,Ashland (Green/Pink),,41.885269,-87.666969,1,,1
40180,,Oak Park (Blue),,41.872108,-87.791602,1,,0
40190,,Sox-35th,,41.831191,-87.630636,1,,1
40210,,Damen (Pink),,41.854517,-87.675975,1,,1
40220,,Western (Blue - Forest Park Branch),,41.875478,-87.688436,1,,0
40230,,Cumberland,,41.984246,-87.838028,1,,1
40240,,79th,,41.750419,-87.625112,1,,1
40250,,Kedzie-Homan,,41.874341,-87.70604,1,,1
40260,,State/Lake (Loop 'L'),,41.88574,-87.627835,1,,0
40270,,Main,,42.033456,-87.679538,1,,0
40280,,Central (Green),,41.887389,-87.76565,1,,1
40290,,Ashland/63rd,,41.77886,-87.663766,1,,1
40300,,Indiana,,41.821732,-87.621371,1,,1
40310,,Western (Orange),,41.804546,-87.684019,1,,1
40320,,Division,,41.903355,-87.666496,1,,0
40330,,Grand (Red),,41.891665,-87.628021,1,,1
40350,,UIC-Halsted,,41.875474,-87.649707,1,,1
40360,,Southport,,41.943744,-87.663619,1,,1
40370,,Washington,,41.883164,-87.62944,1,,0
40380,,Clark/Lake,,41.885737,-87.630886,1,,1
40390,,Forest Park,,41.874257,-87.817318,1,,1
40400,,Noyes,,42.058282,-87.683337,1,,0
40420,,Cicero (Pink),,41.85182,-87.745336,1,,1
40430,,Clinton (Blue),,41.875539,-87.640984,1,,0
40440,,California (Pink),,41.854109,-87.694774,1,,1
40450,,95th/Dan Ryan,,41.722377,-87.624342,1,,1
40460,,Merchandise Mart (Brown/Purple),,41.888969,-87.633924,1,,1
40470,,Racine,,41.87592,-87.659458,1,,0
40480,,Cicero (Green),,41.886519,-87.744698,1,,1
40490,,Grand (Blue),,41.891189,-87.647578,1,,0
40510,,Garfield (Green),,41.795172,-87.618327,1,,1
40520,,Foster,,42.05416,-87.68356,1,,0
40530,,Diversey (Brown/Purple),,41.932732,-87.653131,1,,1
40540,,Wilson,,41.965481568,-87.6579258145,1,,1
40550,,Irving Park (Blue),,41.952925,-87.729229,1,,0
40560,,Jackson (Red),,41.878153,-87.627596,1,,1
40570,,California (Blue),,41.9221583097,-87.6972439537,1,,0
40580,,54th/Cermak,,41.85177331,-87.75669201,1,,1
40590,,Damen (Blue),,41.9098452343,-87.6775400139,1,,0
40600,,Kostner,,41.853751,-87.733258,1,,1
40610,,Ridgeland,,41.887159,-87.783661,1,,0
40630,,Clark/Division,,41.90392,-87.631412,1,,1
40650,,North/Clybourn,,41.910655,-87.649177,1,,0
40660,,Armitage (Brown/Purple),,41.918217,-87.652644,1,,1
40670,,Western (Blue - O'Hare Branch),,41.916157,-87.687364,1,,1
40680,,Adams/Wabash,,41.879507,-87.626037,1,,0
40690,,Dempster,,42.041655,-87.681602,1,,0
40700,,Laramie,,41.887163,-87.754986,1,,1
40710,,Chicago (Brown/Purple),,41.89681,-87.635924,1,,1
40720,,Cottage Grove,,41.780309,-87.605857,1,,1
40730,,Washington/Wells,,41.882695,-87.63378,1,,1
40740,,Western (Pink),,41.854225,-87.685129,1,,1
40750,,Harlem (Blue - O'Hare Branch),,41.98227,-87.8089,1,,1
40760,,Granville,,41.9944830093,-87.6591866269,1,,1
40780,,Central Park,,41.853839,-87.714842,1,,1
40790,,Monroe (Blue),,41.880703,-87.629378,1,,0
40800,,Sedgwick (Brown/Purple),,41.910409,-87.639302,1,,1
40810,,Illinois Medical District,,41.875706,-87.673932,1,,1
40820,,Rosemont,,41.983507,-87.859388,1,,1
40830,,18th,,41.857908,-87.669147,1,,1
40840,,South Boulevard,,42.027612,-87.678329,1,,0
40850,,Harold Washington Library-State/Van Buren,,41.876862,-87.628196,1,,1
40870,,Francisco,,41.966046,-87.701644,1,,1
40880,,Thorndale,,41.9900990857,-87.6590684978,1,,0
40890,,O'Hare,,41.97766526,-87.90422307,1,,1
40900,,Howard,,42.019063,-87.672892,1,,1
40910,,63rd,,41.780536,-87.630952,1,,1
40920,,Pulaski (Blue),,41.873797,-87.725663,1,,0
40930,,Midway,,41.78661,-87.737875,1,,1
40940,,Halsted (Green),,41.778943,-87.644244,1,,1
40960,,Pulaski (Orange),,41.799756,-87.724493,1,,1
40970,,Cicero (Blue),,41.871574,-87.745154,1,,0
40980,,Harlem (Blue - Forest Park Branch),,41.87349,-87.806961,1,,0
40990,,69th,,41.768367,-87.625724,1,,1
41000,,Cermak-Chinatown,,41.853206,-87.630968,1,,1
41010,,Rockwell,,41.966115,-87.6941,1,,1
41020,,Logan Square,,41.9295342259,-87.7076881549,1,,1
41030,,Polk,,41.871551,-87.66953,1,,1
41040,,Kedzie (Pink),,41.853964,-87.705408,1,,1
41050,,Linden,,42.073153,-87.69073,1,,1
41060,,Ashland (Orange),,41.839234,-87.665317,1,,1
41070,,Kedzie (Green),,41.884321,-87.706155,1,,1
41080,,47th (Green),,41.809209,-87.618826,1,,1
41090,,Monroe (Red),,41.880745,-87.627696,1,,0
41120,,35th-Bronzeville-IIT,,41.831677,-87.625826,1,,1
41130,,Halsted (Orange),,41.84678,-87.648088,1,,1
41140,,King Drive,,41.78013,-87.615546,1,,1
41150,,Kedzie (Orange),,41.804236,-87.704406,1,,1
41160,,Clinton (Green/Pink),,41.885678,-87.641782,1,,1
41170,,Garfield (Red),,41.79542,-87.631157,1,,1
41180,,Kedzie (Brown),,41.965996,-87.708821,1,,1
41190,,Jarvis,,42.0160204165,-87.6692571266,1,,0
41200,,Argyle,,41.9733220506,-87.6585279483,1,,0
41210,,Wellington (Brown/Purple),,41.936033,-87.653266,1,,1
41220,,Fullerton,,41.9253003719,-87.6528684398,1,,1
41230,,47th (Red),,41.810318,-87.63094,1,,1
41240,,Addison (Blue),,41.9466037164,-87.7184584172,1,,1
41250,,Central (Purple),,42.063987,-87.685617,1,,0
41260,,Austin (Green),,41.887293,-87.774135,1,,0
41270,,43rd,,41.816462,-87.619021,1,,1
41280,,Jefferson Park Transit Center,,41.9702338623,-87.7615940115,1,,1
41290,,Kimball,,41.967901,-87.713065,1,,1
41300,,Loyola,,42.001073,-87.661061,1,,1
41310,,Paulina,,41.943623,-87.670907,1,,1
41320,,Belmont (Red/Brown/Purple),,41.939751,-87.65338,1,,1
41330,,Montrose (Blue),,41.9609010454,-87.7429034362,1,,0
41340,,LaSalle,,41.875568,-87.631722,1,,0
41350,,Oak Park (Green),,41.886988,-87.793783,1,,0
41360,,California (Green),,41.88422,-87.696234,1,,1
41380,,Bryn Mawr,,41.983504,-87.65884,1,,0
41400,,Roosevelt,,41.8673785311,-87.6270314058,1,,1
41410,,Chicago (Blue),,41.896075,-87.655214,1,,0
41420,,Addison (Red),,41.947316173,-87.6536241013,1,,1
41430,,87th,,41.735372,-87.624717,1,,1
41440,,Addison (Brown),,41.947028,-87.674642,1,,1
41450,,Chicago (Red),,41.896671,-87.628176,1,,1
41460,,Irving Park (Brown),,41.954521,-87.674868,1,,1
41480,,Western (Brown),,41.966163,-87.688502,1,,1
41490,,Harrison,,41.874039,-87.627479,1,,0
41500,,Montrose (Brown),,41.961756,-87.675047,1,,1
41510,,Morgan (Green/Pink),,41.88557676,-87.65212993,1,,1
41660,,Lake (Subway),,41.884809,-87.627813,1,,1
41670,,Conservatory-Central Park Drive,,41.884904,-87.716523,1,,1
41680,,Oakton-Skokie,,42.02624348,-87.74722084,1,,1
41690,,Cermak-McCormick Place,,41.853115,-87.626402,1,,1
41700,,Washington/Wabash,,41.88322,-87.626189,1,,1
60000,,Clark/Division - NW corner,Stairs from NW corner of Clark & Division,41.904,-87.6315,2,40630,2
60001,,Clark/Division - NE corner,Stairs from NE corner of Clark & Division,41.904,-87.6314,2,40630,2
60002,,Clark/Division - SW corner,Stairs from SW corner of Clark & Division,41.9038,-87.6315,2,40630,2
60003,,Clark/Division - SE corner,Stairs from SE corner of Clark & Division,41.9038,-87.6314,2,40630,2
60004,,LaSalle/Division NE corner,Stairs from NE corner of LaSalle & Division,41.904,-87.6328,2,40630,2
60005,,LaSalle/Division SE corner),Stairs from SE corner of LaSalle & Division,41.9038,-87.6328,2,40630,2
60006,,Clark/Division (LaSalle/Division SE corner elevator),Elevator from SE corner of LaSalle & Division,41.90382,-87.6328,2,40630,1
60007,,Harlem/Lake (Harlem Av entry),Main entrance on Harlem,41.8868,-87.8051,2,40020,2
60008,,Harlem/Lake (Marion St entry),Accessible entrance with connection to Metra UP-W Oak Park Station,41.8868,-87.8033,2,40020,1
60009,,Sox-35th (33rd St entry),Auxiliary entrance farecard required,41.83458,-87.6307,2,40190,2
60010,,Sox-35th (35th St entry),Main entrance accessible,41.83106,-87.6307,2,40190,1
60011,,Wilson (Wilson Av south side entry),Main entrance on south side of Wilson accessible via elevators,41.96528,-87.6579,2,40540,1
60012,,Wilson (Sunnyside Av entry),Entrance on Sunnyside west of B'way accessible via ramps,41.9635,-87.6573,2,40540,1
60013,,Wilson (Wilson Av north side entry),Auxiliary entrance on north side of Wilson farecard required,41.96553,-87.658,2,40540,2
999990,999990,Rosemont Blue Line,Rosemont Blue Line Station Terminal,41.9840004,-87.860325,0,,1
999991,999991,O'Hare Airport,O'Hare Airport Bus Terminal,41.9778699,-87.9040304,0,,1
999994,999994,McCormick Place,McCormick Place North Shuttle Stop,41.852922,-87.615672,0,,1
999995,999995,63rd Street & Rhodes,"63rd Street & Rhodes, Eastbound, Southeast Corner",41.780259,-87.611814,0,,1
16077,16077,63rd Street & Cottage Grove (Green Line),"63rd Street & Cottage Grove (Green Line), Westbound, Northwest Corner",41.78046531,-87.60617373,0,,1